$GPGSV,3,1,12,02,39,291,45,25,57,165,45,04,48,239,46,13,82,049,42*7C
$GPGSV,3,2,12,20,14,124,28,23,50,071,48,16,18,053,39,27,40,186,33*73
$GPGSV,3,3,12,10,10,299,36,08,13,195,32,07,01,001,20,06,03,352,*7F
$GPGLL,5231.8622,N,1323.0862,E,000202.0,A,,*00
$GPGGA,000202.000,5231.8622,N,01323.0862,E,1,08,1.0,0.0,M,0.0,M,,*61
$GPGSA,A,3,25,20,23,24,16,13,11,1,4,,,,1.763,0.931,1.497*33
$GPRMC,000202.000,A,5231.8622,N,01323.0862,E,48.638,63.727,030108,0.0,E,*4C
$GPGST,000202.0,14.0,10.9,6.3,76.5,6.1,9.8,22.2*6F
$GPVTG,78.8,T,80.9,M,48.638,N,90.000,K,A*2D
$GPGSV,3,1,12,02,39,291,45,25,57,165,45,04,48,239,46,13,82,049,42*7C
$GPGSV,3,2,12,20,14,124,28,23,50,071,48,16,18,053,39,27,40,186,33*73
$GPGSV,3,3,12,10,10,299,36,08,13,195,32,07,01,001,20,06,03,352,*7F
$GPGLL,5231.8683,N,1323.1076,E,000203.0,A,,*06
$GPGGA,000203.000,5231.8683,N,01323.1076,E,1,08,1.0,0.0,M,0.0,M,,*67
$GPGSA,A,3,25,20,23,24,16,13,11,1,4,,,,1.763,0.931,1.497*33
$GPRMC,000203.000,A,5231.8683,N,01323.1076,E,48.638,65.364,030108,0.0,E,*4F
$GPGST,000203.0,14.0,10.9,6.3,76.5,6.1,9.8,22.2*6E
$GPVTG,78.8,T,80.9,M,48.638,N,90.000,K,A*2D
$GPGSV,3,1,12,02,39,291,45,25,57,165,45,04,48,239,46,13,82,049,42*7C
$GPGSV,3,2,12,20,14,124,28,23,50,071,48,16,18,053,39,27,40,186,33*73
$GPGSV,3,3,12,10,10,299,36,08,13,195,32,07,01,001,20,06,03,352,*7F
$GPGLL,5231.8730,N,1323.1285,E,000204.0,A,,*06
$GPGGA,000204.000,5231.8730,N,01323.1285,E,1,08,1.0,0.0,M,0.0,M,,*67
$GPGSA,A,3,25,20,23,24,16,13,11,1,4,,,,1.763,0.931,1.497*33
$GPRMC,000204.000,A,5231.8730,N,01323.1285,E,48.638,72.376,030108,0.0,E,*4A
$GPGST,000204.0,14.0,10.9,6.3,76.5,6.1,9.8,22.2*69
$GPVTG,78.8,T,80.9,M,48.638,N,90.000,K,A*2D
$GPGSV,3,1,12,02,39,291,45,25,57,165,45,04,48,239,46,13,82,049,42*7C
$GPGSV,3,2,12,20,14,124,28,23,50,071,48,16,18,053,39,27,40,186,33*73
$GPGSV,3,3,12,10,10,299,36,08,13,195,32,07,01,001,20,06,03,352,*7F
$GPGLL,5231.8771,N,1323.1495,E,000205.0,A,,*05
$GPGGA,000205.000,5231.8771,N,01323.1495,E,1,08,1.0,0.0,M,0.0,M,,*64
$GPGSA,A,3,25,20,23,24,16,13,11,1,4,,,,1.763,0.931,1.497*33
$GPRMC,000205.000,A,5231.8771,N,01323.1495,E,48.638,72.376,030108,0.0,E,*49
$GPGST,000205.0,14.0,10.9,6.3,76.5,6.1,9.8,22.2*68
$GPVTG,78.8,T,80.9,M,48.638,N,90.000,K,A*2D
$GPGSV,3,1,12,02,39,291,45,25,57,165,45,04,48,239,46,13,82,049,42*7C
$GPGSV,3,2,12,20,14,124,28,23,50,071,48,16,18,053,39,27,40,186,33*73
$GPGSV,3,3,12,10,10,299,36,08,13,195,32,07,01,001,20,06,03,352,*7F
$GPGLL,5231.8812,N,1323.1705,E,000206.0,A,,*06
$GPGGA,000206.000,5231.8812,N,01323.1705,E,1,08,1.0,0.0,M,0.0,M,,*67
$GPGSA,A,3,25,20,23,24,16,13,11,1,4,,,,1.763,0.931,1.497*33
$GPRMC,000206.000,A,5231.8812,N,01323.1705,E,48.638,72.376,030108,0.0,E,*4A
$GPGST,000206.0,14.0,10.9,6.3,76.5,6.1,9.8,22.2*6B
$GPVTG,78.8,T,80.9,M,48.638,N,90.000,K,A*2D
$GPGSV,3,1,12,02,39,291,45,25,57,165,45,04,48,239,46,13,82,049,42*7C
$GPGSV,3,2,12,20,14,124,28,23,50,071,48,16,18,053,39,27,40,186,33*73
$GPGSV,3,3,12,10,10,299,36,08,13,195,32,07,01,001,20,06,03,352,*7F
$GPGLL,5231.8842,N,1323.1932,E,000207.0,A,,*08
$GPGGA,000207.000,5231.8842,N,01323.1932,E,1,08,1.0,0.0,M,0.0,M,,*69
$GPGSA,A,3,25,20,23,24,16,13,11,1,4,,,,1.763,0.931,1.497*33
$GPRMC,000207.000,A,5231.8842,N,01323.1932,E,48.638,74.796,030108,0.0,E,*48
$GPGST,000207.0,14.0,10.9,6.3,76.5,6.1,9.8,22.2*6A
$GPVTG,78.8,T,80.9,M,48.638,N,90.000,K,A*2D
$GPGSV,3,1,12,02,39,291,45,25,57,165,45,04,48,239,46,13,82,049,42*7C
$GPGSV,3,2,12,20,14,124,28,23,50,071,48,16,18,053,39,27,40,186,33*73
$GPGSV,3,3,12,10,10,299,36,08,13,195,32,07,01,001,20,06,03,352,*7F
$GPGLL,5231.8839,N,1323.2115,E,000208.0,A,,*05
$GPGGA,000208.000,5231.8839,N,01323.2115,E,1,08,1.0,0.0,M,0.0,M,,*64
$GPGSA,A,3,25,20,23,24,16,13,11,1,4,,,,1.763,0.931,1.497*33
$GPRMC,000208.000,A,5231.8839,N,01323.2115,E,48.638,161.185,030108,0.0,E,*74
$GPGST,000208.0,14.0,10.9,6.3,76.5,6.1,9.8,22.2*65
$GPVTG,78.8,T,80.9,M,48.638,N,90.000,K,A*2D
$GPGSV,3,1,12,02,39,291,45,25,57,165,45,04,48,239,46,13,82,049,42*7C
$GPGSV,3,2,12,20,14,124,28,23,50,071,48,16,18,053,39,27,40,186,33*73
$GPGSV,3,3,12,10,10,299,36,08,13,195,32,07,01,001,20,06,03,352,*7F
$GPGLL,5231.8709,N,1323.2187,E,000209.0,A,,*03
$GPGGA,000209.000,5231.8709,N,01323.2187,E,1,08,1.0,0.0,M,0.0,M,,*62
$GPGSA,A,3,25,20,23,24,16,13,11,1,4,,,,1.763,0.931,1.497*33
$GPRMC,000209.000,A,5231.8709,N,01323.2187,E,48.638,161.185,030108,0.0,E,*72
$GPGST,000209.0,14.0,10.9,6.3,76.5,6.1,9.8,22.2*64
$GPVTG,78.8,T,80.9,M,48.638,N,90.000,K,A*2D
$GPGSV,3,1,12,02,39,291,45,25,57,165,45,04,48,239,46,13,82,049,42*7C
$GPGSV,3,2,12,20,14,124,28,23,50,071,48,16,18,053,39,27,40,186,33*73
$GPGSV,3,3,12,10,10,299,36,08,13,195,32,07,01,001,20,06,03,352,*7F
$GPGLL,5231.8579,N,1323.2259,E,000210.0,A,,*0E
$GPGGA,000210.000,5231.8579,N,01323.2259,E,1,08,1.0,0.0,M,0.0,M,,*6F
$GPGSA,A,3,25,20,23,24,16,13,11,1,4,,,,1.763,0.931,1.497*33
$GPRMC,000210.000,A,5231.8579,N,01323.2259,E,48.638,161.185,030108,0.0,E,*7F
$GPGST,000210.0,14.0,10.9,6.3,76.5,6.1,9.8,22.2*6C
$GPVTG,78.8,T,80.9,M,48.638,N,90.000,K,A*2D
$GPGSV,3,1,12,02,39,291,45,25,57,165,45,04,48,239,46,13,82,049,42*7C
$GPGSV,3,2,12,20,14,124,28,23,50,071,48,16,18,053,39,27,40,186,33*73
$GPGSV,3,3,12,10,10,299,36,08,13,195,32,07,01,001,20,06,03,352,*7F
$GPGLL,5231.8450,N,1323.2330,E,000211.0,A,,*0B
$GPGGA,000211.000,5231.8450,N,01323.2330,E,1,08,1.0,0.0,M,0.0,M,,*6A
$GPGSA,A,3,25,20,23,24,16,13,11,1,4,,,,1.763,0.931,1.497*33
$GPRMC,000211.000,A,5231.8450,N,01323.2330,E,48.638,161.785,030108,0.0,E,*7C
$GPGST,000211.0,14.0,10.9,6.3,76.5,6.1,9.8,22.2*6D
$GPVTG,78.8,T,80.9,M,48.638,N,90.000,K,A*2D
$GPGSV,3,1,12,02,39,291,45,25,57,165,45,04,48,239,46,13,82,049,42*7C
$GPGSV,3,2,12,20,14,124,28,23,50,071,48,16,18,053,39,27,40,186,33*73
$GPGSV,3,3,12,10,10,299,36,08,13,195,32,07,01,001,20,06,03,352,*7F
$GPGLL,5231.8320,N,1323.2399,E,000212.0,A,,*0B
$GPGGA,000212.000,5231.8320,N,01323.2399,E,1,08,1.0,0.0,M,0.0,M,,*6A
$GPGSA,A,3,25,20,23,24,16,13,11,1,4,,,,1.763,0.931,1.497*33
$GPRMC,000212.000,A,5231.8320,N,01323.2399,E,48.638,161.785,030108,0.0,E,*7C
$GPGST,000212.0,14.0,10.9,6.3,76.5,6.1,9.8,22.2*6E
$GPVTG,78.8,T,80.9,M,48.638,N,90.000,K,A*2D
$GPGSV,3,1,12,02,39,291,45,25,57,165,45,04,48,239,46,13,82,049,42*7C
$GPGSV,3,2,12,20,14,124,28,23,50,071,48,16,18,053,39,27,40,186,33*73
$GPGSV,3,3,12,10,10,299,36,08,13,195,32,07,01,001,20,06,03,352,*7F
$GPGLL,5231.8280,N,1323.2542,E,000213.0,A,,*01
$GPGGA,000213.000,5231.8280,N,01323.2542,E,1,08,1.0,0.0,M,0.0,M,,*60
$GPGSA,A,3,25,20,23,24,16,13,11,1,4,,,,1.763,0.931,1.497*33
$GPRMC,000213.000,A,5231.8280,N,01323.2542,E,48.638,72.066,030108,0.0,E,*4F
$GPGST,000213.0,14.0,10.9,6.3,76.5,6.1,9.8,22.2*6F
$GPVTG,78.8,T,80.9,M,48.638,N,90.000,K,A*2D
$GPGSV,3,1,12,02,39,291,45,25,57,165,45,04,48,239,46,13,82,049,42*7C
$GPGSV,3,2,12,20,14,124,28,23,50,071,48,16,18,053,39,27,40,186,33*73
$GPGSV,3,3,12,10,10,299,36,08,13,195,32,07,01,001,20,06,03,352,*7F
$GPGLL,5231.8322,N,1323.2753,E,000214.0,A,,*0D
$GPGGA,000214.000,5231.8322,N,01323.2753,E,1,08,1.0,0.0,M,0.0,M,,*6C
$GPGSA,A,3,25,20,23,24,16,13,11,1,4,,,,1.763,0.931,1.497*33
$GPRMC,000214.000,A,5231.8322,N,01323.2753,E,48.638,72.066,030108,0.0,E,*43
$GPGST,000214.0,14.0,10.9,6.3,76.5,6.1,9.8,22.2*68
$GPVTG,78.8,T,80.9,M,48.638,N,90.000,K,A*2D
$GPGSV,3,1,12,02,39,291,45,25,57,165,45,04,48,239,46,13,82,049,42*7C
$GPGSV,3,2,12,20,14,124,28,23,50,071,48,16,18,053,39,27,40,186,33*73
$GPGSV,3,3,12,10,10,299,36,08,13,195,32,07,01,001,20,06,03,352,*7F
$GPGLL,5231.8364,N,1323.2964,E,000215.0,A,,*04
$GPGGA,000215.000,5231.8364,N,01323.2964,E,1,08,1.0,0.0,M,0.0,M,,*65
$GPGSA,A,3,25,20,23,24,16,13,11,1,4,,,,1.763,0.931,1.497*33
$GPRMC,000215.000,A,5231.8364,N,01323.2964,E,48.638,72.066,030108,0.0,E,*4A
$GPGST,000215.0,14.0,10.9,6.3,76.5,6.1,9.8,22.2*69
$GPVTG,78.8,T,80.9,M,48.638,N,90.000,K,A*2D
$GPGSV,3,1,12,02,39,291,45,25,57,165,45,04,48,239,46,13,82,049,42*7C
$GPGSV,3,2,12,20,14,124,28,23,50,071,48,16,18,053,39,27,40,186,33*73
$GPGSV,3,3,12,10,10,299,36,08,13,195,32,07,01,001,20,06,03,352,*7F
$GPGLL,5231.8406,N,1323.3175,E,000216.0,A,,*0D
$GPGGA,000216.000,5231.8406,N,01323.3175,E,1,08,1.0,0.0,M,0.0,M,,*6C
$GPGSA,A,3,25,20,23,24,16,13,11,1,4,,,,1.763,0.931,1.497*33
$GPRMC,000216.000,A,5231.8406,N,01323.3175,E,48.638,72.066,030108,0.0,E,*43
$GPGST,000216.0,14.0,10.9,6.3,76.5,6.1,9.8,22.2*6A
$GPVTG,78.8,T,80.9,M,48.638,N,90.000,K,A*2D
$GPGSV,3,1,12,02,39,291,45,25,57,165,45,04,48,239,46,13,82,049,42*7C
$GPGSV,3,2,12,20,14,124,28,23,50,071,48,16,18,053,39,27,40,186,33*73
$GPGSV,3,3,12,10,10,299,36,08,13,195,32,07,01,001,20,06,03,352,*7F
$GPGLL,5231.8362,N,1323.3325,E,000217.0,A,,*0E
$GPGGA,000217.000,5231.8362,N,01323.3325,E,1,08,1.0,0.0,M,0.0,M,,*6F
$GPGSA,A,3,25,20,23,24,16,13,11,1,4,,,,1.763,0.931,1.497*33
$GPRMC,000217.000,A,5231.8362,N,01323.3325,E,48.638,154.603,030108,0.0,E,*70
$GPGST,000217.0,14.0,10.9,6.3,76.5,6.1,9.8,22.2*6B
$GPVTG,78.8,T,80.9,M,48.638,N,90.000,K,A*2D
$GPGSV,3,1,12,02,39,291,45,25,57,165,45,04,48,239,46,13,82,049,42*7C
$GPGSV,3,2,12,20,14,124,28,23,50,071,48,16,18,053,39,27,40,186,33*73
$GPGSV,3,3,12,10,10,299,36,08,13,195,32,07,01,001,20,06,03,352,*7F
$GPGLL,5231.8239,N,1323.3420,E,000218.0,A,,*0C
$GPGGA,000218.000,5231.8239,N,01323.3420,E,1,08,1.0,0.0,M,0.0,M,,*6D
$GPGSA,A,3,25,20,23,24,16,13,11,1,4,,,,1.763,0.931,1.497*33
$GPRMC,000218.000,A,5231.8239,N,01323.3420,E,48.638,154.603,030108,0.0,E,*72
$GPGST,000218.0,14.0,10.9,6.3,76.5,6.1,9.8,22.2*64
$GPVTG,78.8,T,80.9,M,48.638,N,90.000,K,A*2D
$GPGSV,3,1,12,02,39,291,45,25,57,165,45,04,48,239,46,13,82,049,42*7C
$GPGSV,3,2,12,20,14,124,28,23,50,071,48,16,18,053,39,27,40,186,33*73
$GPGSV,3,3,12,10,10,299,36,08,13,195,32,07,01,001,20,06,03,352,*7F
$GPGLL,5231.8181,N,1323.3466,E,000219.0,A,,*0F
$GPGGA,000219.000,5231.8181,N,01323.3466,E,1,08,1.0,0.0,M,0.0,M,,*6E
$GPGSA,A,3,25,20,23,24,16,13,11,1,4,,,,1.763,0.931,1.497*33
$GPRMC,000219.000,A,5231.8181,N,01323.3466,E,48.638,154.603,030108,0.0,E,*71
$GPGST,000219.0,14.0,10.9,6.3,76.5,6.1,9.8,22.2*65
$GPVTG,78.8,T,80.9,M,48.638,N,90.000,K,A*2D
