$GPGSV,3,1,12,02,39,291,45,25,57,165,45,04,48,239,46,13,82,049,42*7C
$GPGSV,3,2,12,20,14,124,28,23,50,071,48,16,18,053,39,27,40,186,33*73
$GPGSV,3,3,12,10,10,299,36,08,13,195,32,07,01,001,20,06,03,352,*7F
$GPGLL,5231.8644,N,1323.0937,E,000148.0,A,,*0C
$GPGGA,000148.000,5231.8644,N,01323.0937,E,1,08,1.0,0.0,M,0.0,M,,*6D
$GPGSA,A,3,25,20,23,24,16,13,11,1,4,,,,1.763,0.931,1.497*33
$GPRMC,000148.000,A,5231.8644,N,01323.0937,E,43.234,65.325,030108,0.0,E,*43
$GPGST,000148.0,14.0,10.9,6.3,76.5,6.1,9.8,22.2*62
$GPVTG,78.8,T,80.9,M,43.234,N,80.000,K,A*2F
$GPGSV,3,1,12,02,39,291,45,25,57,165,45,04,48,239,46,13,82,049,42*7C
$GPGSV,3,2,12,20,14,124,28,23,50,071,48,16,18,053,39,27,40,186,33*73
$GPGSV,3,3,12,10,10,299,36,08,13,195,32,07,01,001,20,06,03,352,*7F
$GPGLL,5231.8694,N,1323.1119,E,000149.0,A,,*05
$GPGGA,000149.000,5231.8694,N,01323.1119,E,1,08,1.0,0.0,M,0.0,M,,*64
$GPGSA,A,3,25,20,23,24,16,13,11,1,4,,,,1.763,0.931,1.497*33
$GPRMC,000149.000,A,5231.8694,N,01323.1119,E,43.234,69.003,030108,0.0,E,*41
$GPGST,000149.0,14.0,10.9,6.3,76.5,6.1,9.8,22.2*63
$GPVTG,78.8,T,80.9,M,43.234,N,80.000,K,A*2F
$GPGSV,3,1,12,02,39,291,45,25,57,165,45,04,48,239,46,13,82,049,42*7C
$GPGSV,3,2,12,20,14,124,28,23,50,071,48,16,18,053,39,27,40,186,33*73
$GPGSV,3,3,12,10,10,299,36,08,13,195,32,07,01,001,20,06,03,352,*7F
$GPGLL,5231.8734,N,1323.1306,E,000150.0,A,,*0A
$GPGGA,000150.000,5231.8734,N,01323.1306,E,1,08,1.0,0.0,M,0.0,M,,*6B
$GPGSA,A,3,25,20,23,24,16,13,11,1,4,,,,1.763,0.931,1.497*33
$GPRMC,000150.000,A,5231.8734,N,01323.1306,E,43.234,72.376,030108,0.0,E,*45
$GPGST,000150.0,14.0,10.9,6.3,76.5,6.1,9.8,22.2*6B
$GPVTG,78.8,T,80.9,M,43.234,N,80.000,K,A*2F
$GPGSV,3,1,12,02,39,291,45,25,57,165,45,04,48,239,46,13,82,049,42*7C
$GPGSV,3,2,12,20,14,124,28,23,50,071,48,16,18,053,39,27,40,186,33*73
$GPGSV,3,3,12,10,10,299,36,08,13,195,32,07,01,001,20,06,03,352,*7F
$GPGLL,5231.8770,N,1323.1493,E,000151.0,A,,*00
$GPGGA,000151.000,5231.8770,N,01323.1493,E,1,08,1.0,0.0,M,0.0,M,,*61
$GPGSA,A,3,25,20,23,24,16,13,11,1,4,,,,1.763,0.931,1.497*33
$GPRMC,000151.000,A,5231.8770,N,01323.1493,E,43.234,72.376,030108,0.0,E,*4F
$GPGST,000151.0,14.0,10.9,6.3,76.5,6.1,9.8,22.2*6A
$GPVTG,78.8,T,80.9,M,43.234,N,80.000,K,A*2F
$GPGSV,3,1,12,02,39,291,45,25,57,165,45,04,48,239,46,13,82,049,42*7C
$GPGSV,3,2,12,20,14,124,28,23,50,071,48,16,18,053,39,27,40,186,33*73
$GPGSV,3,3,12,10,10,299,36,08,13,195,32,07,01,001,20,06,03,352,*7F
$GPGLL,5231.8807,N,1323.1679,E,000152.0,A,,*0A
$GPGGA,000152.000,5231.8807,N,01323.1679,E,1,08,1.0,0.0,M,0.0,M,,*6B
$GPGSA,A,3,25,20,23,24,16,13,11,1,4,,,,1.763,0.931,1.497*33
$GPRMC,000152.000,A,5231.8807,N,01323.1679,E,43.234,72.376,030108,0.0,E,*45
$GPGST,000152.0,14.0,10.9,6.3,76.5,6.1,9.8,22.2*69
$GPVTG,78.8,T,80.9,M,43.234,N,80.000,K,A*2F
$GPGSV,3,1,12,02,39,291,45,25,57,165,45,04,48,239,46,13,82,049,42*7C
$GPGSV,3,2,12,20,14,124,28,23,50,071,48,16,18,053,39,27,40,186,33*73
$GPGSV,3,3,12,10,10,299,36,08,13,195,32,07,01,001,20,06,03,352,*7F
$GPGLL,5231.8834,N,1323.1881,E,000153.0,A,,*02
$GPGGA,000153.000,5231.8834,N,01323.1881,E,1,08,1.0,0.0,M,0.0,M,,*63
$GPGSA,A,3,25,20,23,24,16,13,11,1,4,,,,1.763,0.931,1.497*33
$GPRMC,000153.000,A,5231.8834,N,01323.1881,E,43.234,74.796,030108,0.0,E,*41
$GPGST,000153.0,14.0,10.9,6.3,76.5,6.1,9.8,22.2*68
$GPVTG,78.8,T,80.9,M,43.234,N,80.000,K,A*2F
$GPGSV,3,1,12,02,39,291,45,25,57,165,45,04,48,239,46,13,82,049,42*7C
$GPGSV,3,2,12,20,14,124,28,23,50,071,48,16,18,053,39,27,40,186,33*73
$GPGSV,3,3,12,10,10,299,36,08,13,195,32,07,01,001,20,06,03,352,*7F
$GPGLL,5231.8866,N,1323.2075,E,000154.0,A,,*02
$GPGGA,000154.000,5231.8866,N,01323.2075,E,1,08,1.0,0.0,M,0.0,M,,*63
$GPGSA,A,3,25,20,23,24,16,13,11,1,4,,,,1.763,0.931,1.497*33
$GPRMC,000154.000,A,5231.8866,N,01323.2075,E,43.234,74.796,030108,0.0,E,*41
$GPGST,000154.0,14.0,10.9,6.3,76.5,6.1,9.8,22.2*6F
$GPVTG,78.8,T,80.9,M,43.234,N,80.000,K,A*2F
$GPGSV,3,1,12,02,39,291,45,25,57,165,45,04,48,239,46,13,82,049,42*7C
$GPGSV,3,2,12,20,14,124,28,23,50,071,48,16,18,053,39,27,40,186,33*73
$GPGSV,3,3,12,10,10,299,36,08,13,195,32,07,01,001,20,06,03,352,*7F
$GPGLL,5231.8898,N,1323.2266,E,000155.0,A,,*02
$GPGGA,000155.000,5231.8898,N,01323.2266,E,1,08,1.0,0.0,M,0.0,M,,*63
$GPGSA,A,3,25,20,23,24,16,13,11,1,4,,,,1.763,0.931,1.497*33
$GPRMC,000155.000,A,5231.8898,N,01323.2266,E,43.234,74.796,030108,0.0,E,*41
$GPGST,000155.0,14.0,10.9,6.3,76.5,6.1,9.8,22.2*6E
$GPVTG,78.8,T,80.9,M,43.234,N,80.000,K,A*2F
$GPGSV,3,1,12,02,39,291,45,25,57,165,45,04,48,239,46,13,82,049,42*7C
$GPGSV,3,2,12,20,14,124,28,23,50,071,48,16,18,053,39,27,40,186,33*73
$GPGSV,3,3,12,10,10,299,36,08,13,195,32,07,01,001,20,06,03,352,*7F
$GPGLL,5231.8918,N,1323.2460,E,000156.0,A,,*08
$GPGGA,000156.000,5231.8918,N,01323.2460,E,1,08,1.0,0.0,M,0.0,M,,*69
$GPGSA,A,3,25,20,23,24,16,13,11,1,4,,,,1.763,0.931,1.497*33
$GPRMC,000156.000,A,5231.8918,N,01323.2460,E,43.234,83.196,030108,0.0,E,*45
$GPGST,000156.0,14.0,10.9,6.3,76.5,6.1,9.8,22.2*6D
$GPVTG,78.8,T,80.9,M,43.234,N,80.000,K,A*2F
$GPGSV,3,1,12,02,39,291,45,25,57,165,45,04,48,239,46,13,82,049,42*7C
$GPGSV,3,2,12,20,14,124,28,23,50,071,48,16,18,053,39,27,40,186,33*73
$GPGSV,3,3,12,10,10,299,36,08,13,195,32,07,01,001,20,06,03,352,*7F
$GPGLL,5231.8932,N,1323.2655,E,000157.0,A,,*05
$GPGGA,000157.000,5231.8932,N,01323.2655,E,1,08,1.0,0.0,M,0.0,M,,*64
$GPGSA,A,3,25,20,23,24,16,13,11,1,4,,,,1.763,0.931,1.497*33
$GPRMC,000157.000,A,5231.8932,N,01323.2655,E,43.234,83.196,030108,0.0,E,*48
$GPGST,000157.0,14.0,10.9,6.3,76.5,6.1,9.8,22.2*6C
$GPVTG,78.8,T,80.9,M,43.234,N,80.000,K,A*2F
$GPGSV,3,1,12,02,39,291,45,25,57,165,45,04,48,239,46,13,82,049,42*7C
$GPGSV,3,2,12,20,14,124,28,23,50,071,48,16,18,053,39,27,40,186,33*73
$GPGSV,3,3,12,10,10,299,36,08,13,195,32,07,01,001,20,06,03,352,*7F
$GPGLL,5231.8947,N,1323.2851,E,000158.0,A,,*02
$GPGGA,000158.000,5231.8947,N,01323.2851,E,1,08,1.0,0.0,M,0.0,M,,*63
$GPGSA,A,3,25,20,23,24,16,13,11,1,4,,,,1.763,0.931,1.497*33
$GPRMC,000158.000,A,5231.8947,N,01323.2851,E,43.234,83.196,030108,0.0,E,*4F
$GPGST,000158.0,14.0,10.9,6.3,76.5,6.1,9.8,22.2*63
$GPVTG,78.8,T,80.9,M,43.234,N,80.000,K,A*2F
$GPGSV,3,1,12,02,39,291,45,25,57,165,45,04,48,239,46,13,82,049,42*7C
$GPGSV,3,2,12,20,14,124,28,23,50,071,48,16,18,053,39,27,40,186,33*73
$GPGSV,3,3,12,10,10,299,36,08,13,195,32,07,01,001,20,06,03,352,*7F
$GPGLL,5231.8965,N,1323.3049,E,000159.0,A,,*03
$GPGGA,000159.000,5231.8965,N,01323.3049,E,1,08,1.0,0.0,M,0.0,M,,*62
$GPGSA,A,3,25,20,23,24,16,13,11,1,4,,,,1.763,0.931,1.497*33
$GPRMC,000159.000,A,5231.8965,N,01323.3049,E,43.234,81.374,030108,0.0,E,*42
$GPGST,000159.0,14.0,10.9,6.3,76.5,6.1,9.8,22.2*62
$GPVTG,78.8,T,80.9,M,43.234,N,80.000,K,A*2F
$GPGSV,3,1,12,02,39,291,45,25,57,165,45,04,48,239,46,13,82,049,42*7C
$GPGSV,3,2,12,20,14,124,28,23,50,071,48,16,18,053,39,27,40,186,33*73
$GPGSV,3,3,12,10,10,299,36,08,13,195,32,07,01,001,20,06,03,352,*7F
$GPGLL,5231.8986,N,1323.3249,E,000200.0,A,,*03
$GPGGA,000200.000,5231.8986,N,01323.3249,E,1,08,1.0,0.0,M,0.0,M,,*62
$GPGSA,A,3,25,20,23,24,16,13,11,1,4,,,,1.763,0.931,1.497*33
$GPRMC,000200.000,A,5231.8986,N,01323.3249,E,43.234,79.442,030108,0.0,E,*47
$GPGST,000200.0,14.0,10.9,6.3,76.5,6.1,9.8,22.2*6D
$GPVTG,78.8,T,80.9,M,43.234,N,80.000,K,A*2F
$GPGSV,3,1,12,02,39,291,45,25,57,165,45,04,48,239,46,13,82,049,42*7C
$GPGSV,3,2,12,20,14,124,28,23,50,071,48,16,18,053,39,27,40,186,33*73
$GPGSV,3,3,12,10,10,299,36,08,13,195,32,07,01,001,20,06,03,352,*7F
$GPGLL,5231.9008,N,1323.3446,E,000201.0,A,,*05
$GPGGA,000201.000,5231.9008,N,01323.3446,E,1,08,1.0,0.0,M,0.0,M,,*64
$GPGSA,A,3,25,20,23,24,16,13,11,1,4,,,,1.763,0.931,1.497*33
$GPRMC,000201.000,A,5231.9008,N,01323.3446,E,43.234,79.868,030108,0.0,E,*45
$GPGST,000201.0,14.0,10.9,6.3,76.5,6.1,9.8,22.2*6C
$GPVTG,78.8,T,80.9,M,43.234,N,80.000,K,A*2F
$GPGSV,3,1,12,02,39,291,45,25,57,165,45,04,48,239,46,13,82,049,42*7C
$GPGSV,3,2,12,20,14,124,28,23,50,071,48,16,18,053,39,27,40,186,33*73
$GPGSV,3,3,12,10,10,299,36,08,13,195,32,07,01,001,20,06,03,352,*7F
$GPGLL,5231.9029,N,1323.3639,E,000202.0,A,,*0F
$GPGGA,000202.000,5231.9029,N,01323.3639,E,1,08,1.0,0.0,M,0.0,M,,*6E
$GPGSA,A,3,25,20,23,24,16,13,11,1,4,,,,1.763,0.931,1.497*33
$GPRMC,000202.000,A,5231.9029,N,01323.3639,E,43.234,79.868,030108,0.0,E,*4F
$GPGST,000202.0,14.0,10.9,6.3,76.5,6.1,9.8,22.2*6F
$GPVTG,78.8,T,80.9,M,43.234,N,80.000,K,A*2F
$GPGSV,3,1,12,02,39,291,45,25,57,165,45,04,48,239,46,13,82,049,42*7C
$GPGSV,3,2,12,20,14,124,28,23,50,071,48,16,18,053,39,27,40,186,33*73
$GPGSV,3,3,12,10,10,299,36,08,13,195,32,07,01,001,20,06,03,352,*7F
$GPGLL,5231.9050,N,1323.3833,E,000203.0,A,,*04
$GPGGA,000203.000,5231.9050,N,01323.3833,E,1,08,1.0,0.0,M,0.0,M,,*65
$GPGSA,A,3,25,20,23,24,16,13,11,1,4,,,,1.763,0.931,1.497*33
$GPRMC,000203.000,A,5231.9050,N,01323.3833,E,43.234,80.631,030108,0.0,E,*40
$GPGST,000203.0,14.0,10.9,6.3,76.5,6.1,9.8,22.2*6E
$GPVTG,78.8,T,80.9,M,43.234,N,80.000,K,A*2F
$GPGSV,3,1,12,02,39,291,45,25,57,165,45,04,48,239,46,13,82,049,42*7C
$GPGSV,3,2,12,20,14,124,28,23,50,071,48,16,18,053,39,27,40,186,33*73
$GPGSV,3,3,12,10,10,299,36,08,13,195,32,07,01,001,20,06,03,352,*7F
$GPGLL,5231.9070,N,1323.4025,E,000204.0,A,,*09
$GPGGA,000204.000,5231.9070,N,01323.4025,E,1,08,1.0,0.0,M,0.0,M,,*68
$GPGSA,A,3,25,20,23,24,16,13,11,1,4,,,,1.763,0.931,1.497*33
$GPRMC,000204.000,A,5231.9070,N,01323.4025,E,43.234,80.631,030108,0.0,E,*4D
$GPGST,000204.0,14.0,10.9,6.3,76.5,6.1,9.8,22.2*69
$GPVTG,78.8,T,80.9,M,43.234,N,80.000,K,A*2F
$GPGSV,3,1,12,02,39,291,45,25,57,165,45,04,48,239,46,13,82,049,42*7C
$GPGSV,3,2,12,20,14,124,28,23,50,071,48,16,18,053,39,27,40,186,33*73
$GPGSV,3,3,12,10,10,299,36,08,13,195,32,07,01,001,20,06,03,352,*7F
$GPGLL,5231.9089,N,1323.4217,E,000205.0,A,,*0D
$GPGGA,000205.000,5231.9089,N,01323.4217,E,1,08,1.0,0.0,M,0.0,M,,*6C
$GPGSA,A,3,25,20,23,24,16,13,11,1,4,,,,1.763,0.931,1.497*33
$GPRMC,000205.000,A,5231.9089,N,01323.4217,E,43.234,80.631,030108,0.0,E,*49
$GPGST,000205.0,14.0,10.9,6.3,76.5,6.1,9.8,22.2*68
$GPVTG,78.8,T,80.9,M,43.234,N,80.000,K,A*2F
$GPGSV,3,1,12,02,39,291,45,25,57,165,45,04,48,239,46,13,82,049,42*7C
$GPGSV,3,2,12,20,14,124,28,23,50,071,48,16,18,053,39,27,40,186,33*73
$GPGSV,3,3,12,10,10,299,36,08,13,195,32,07,01,001,20,06,03,352,*7F
$GPGLL,5231.9109,N,1323.4409,E,000206.0,A,,*0E
$GPGGA,000206.000,5231.9109,N,01323.4409,E,1,08,1.0,0.0,M,0.0,M,,*6F
$GPGSA,A,3,25,20,23,24,16,13,11,1,4,,,,1.763,0.931,1.497*33
$GPRMC,000206.000,A,5231.9109,N,01323.4409,E,43.234,80.631,030108,0.0,E,*4A
$GPGST,000206.0,14.0,10.9,6.3,76.5,6.1,9.8,22.2*6B
$GPVTG,78.8,T,80.9,M,43.234,N,80.000,K,A*2F
$GPGSV,3,1,12,02,39,291,45,25,57,165,45,04,48,239,46,13,82,049,42*7C
$GPGSV,3,2,12,20,14,124,28,23,50,071,48,16,18,053,39,27,40,186,33*73
$GPGSV,3,3,12,10,10,299,36,08,13,195,32,07,01,001,20,06,03,352,*7F
$GPGLL,5231.9128,N,1323.4602,E,000207.0,A,,*05
$GPGGA,000207.000,5231.9128,N,01323.4602,E,1,08,1.0,0.0,M,0.0,M,,*64
$GPGSA,A,3,25,20,23,24,16,13,11,1,4,,,,1.763,0.931,1.497*33
$GPRMC,000207.000,A,5231.9128,N,01323.4602,E,43.234,80.631,030108,0.0,E,*41
$GPGST,000207.0,14.0,10.9,6.3,76.5,6.1,9.8,22.2*6A
$GPVTG,78.8,T,80.9,M,43.234,N,80.000,K,A*2F
$GPGSV,3,1,12,02,39,291,45,25,57,165,45,04,48,239,46,13,82,049,42*7C
$GPGSV,3,2,12,20,14,124,28,23,50,071,48,16,18,053,39,27,40,186,33*73
$GPGSV,3,3,12,10,10,299,36,08,13,195,32,07,01,001,20,06,03,352,*7F
$GPGLL,5231.9148,N,1323.4794,E,000208.0,A,,*02
$GPGGA,000208.000,5231.9148,N,01323.4794,E,1,08,1.0,0.0,M,0.0,M,,*63
$GPGSA,A,3,25,20,23,24,16,13,11,1,4,,,,1.763,0.931,1.497*33
$GPRMC,000208.000,A,5231.9148,N,01323.4794,E,43.234,80.631,030108,0.0,E,*46
$GPGST,000208.0,14.0,10.9,6.3,76.5,6.1,9.8,22.2*65
$GPVTG,78.8,T,80.9,M,43.234,N,80.000,K,A*2F
$GPGSV,3,1,12,02,39,291,45,25,57,165,45,04,48,239,46,13,82,049,42*7C
$GPGSV,3,2,12,20,14,124,28,23,50,071,48,16,18,053,39,27,40,186,33*73
$GPGSV,3,3,12,10,10,299,36,08,13,195,32,07,01,001,20,06,03,352,*7F
$GPGLL,5231.9167,N,1323.4987,E,000209.0,A,,*02
$GPGGA,000209.000,5231.9167,N,01323.4987,E,1,08,1.0,0.0,M,0.0,M,,*63
$GPGSA,A,3,25,20,23,24,16,13,11,1,4,,,,1.763,0.931,1.497*33
$GPRMC,000209.000,A,5231.9167,N,01323.4987,E,43.234,80.647,030108,0.0,E,*47
$GPGST,000209.0,14.0,10.9,6.3,76.5,6.1,9.8,22.2*64
$GPVTG,78.8,T,80.9,M,43.234,N,80.000,K,A*2F
$GPGSV,3,1,12,02,39,291,45,25,57,165,45,04,48,239,46,13,82,049,42*7C
$GPGSV,3,2,12,20,14,124,28,23,50,071,48,16,18,053,39,27,40,186,33*73
$GPGSV,3,3,12,10,10,299,36,08,13,195,32,07,01,001,20,06,03,352,*7F
$GPGLL,5231.9187,N,1323.5181,E,000210.0,A,,*0B
$GPGGA,000210.000,5231.9187,N,01323.5181,E,1,08,1.0,0.0,M,0.0,M,,*6A
$GPGSA,A,3,25,20,23,24,16,13,11,1,4,,,,1.763,0.931,1.497*33
$GPRMC,000210.000,A,5231.9187,N,01323.5181,E,43.234,80.647,030108,0.0,E,*4E
$GPGST,000210.0,14.0,10.9,6.3,76.5,6.1,9.8,22.2*6C
$GPVTG,78.8,T,80.9,M,43.234,N,80.000,K,A*2F
$GPGSV,3,1,12,02,39,291,45,25,57,165,45,04,48,239,46,13,82,049,42*7C
$GPGSV,3,2,12,20,14,124,28,23,50,071,48,16,18,053,39,27,40,186,33*73
$GPGSV,3,3,12,10,10,299,36,08,13,195,32,07,01,001,20,06,03,352,*7F
$GPGLL,5231.9206,N,1323.5375,E,000211.0,A,,*09
$GPGGA,000211.000,5231.9206,N,01323.5375,E,1,08,1.0,0.0,M,0.0,M,,*68
$GPGSA,A,3,25,20,23,24,16,13,11,1,4,,,,1.763,0.931,1.497*33
$GPRMC,000211.000,A,5231.9206,N,01323.5375,E,43.234,80.647,030108,0.0,E,*4C
$GPGST,000211.0,14.0,10.9,6.3,76.5,6.1,9.8,22.2*6D
$GPVTG,78.8,T,80.9,M,43.234,N,80.000,K,A*2F
$GPGSV,3,1,12,02,39,291,45,25,57,165,45,04,48,239,46,13,82,049,42*7C
$GPGSV,3,2,12,20,14,124,28,23,50,071,48,16,18,053,39,27,40,186,33*73
$GPGSV,3,3,12,10,10,299,36,08,13,195,32,07,01,001,20,06,03,352,*7F
$GPGLL,5231.9226,N,1323.5569,E,000212.0,A,,*03
$GPGGA,000212.000,5231.9226,N,01323.5569,E,1,08,1.0,0.0,M,0.0,M,,*62
$GPGSA,A,3,25,20,23,24,16,13,11,1,4,,,,1.763,0.931,1.497*33
$GPRMC,000212.000,A,5231.9226,N,01323.5569,E,43.234,80.055,030108,0.0,E,*43
$GPGST,000212.0,14.0,10.9,6.3,76.5,6.1,9.8,22.2*6E
$GPVTG,78.8,T,80.9,M,43.234,N,80.000,K,A*2F
$GPGSV,3,1,12,02,39,291,45,25,57,165,45,04,48,239,46,13,82,049,42*7C
$GPGSV,3,2,12,20,14,124,28,23,50,071,48,16,18,053,39,27,40,186,33*73
$GPGSV,3,3,12,10,10,299,36,08,13,195,32,07,01,001,20,06,03,352,*7F
$GPGLL,5231.9247,N,1323.5761,E,000213.0,A,,*0F
$GPGGA,000213.000,5231.9247,N,01323.5761,E,1,08,1.0,0.0,M,0.0,M,,*6E
$GPGSA,A,3,25,20,23,24,16,13,11,1,4,,,,1.763,0.931,1.497*33
$GPRMC,000213.000,A,5231.9247,N,01323.5761,E,43.234,80.055,030108,0.0,E,*4F
$GPGST,000213.0,14.0,10.9,6.3,76.5,6.1,9.8,22.2*6F
$GPVTG,78.8,T,80.9,M,43.234,N,80.000,K,A*2F
$GPGSV,3,1,12,02,39,291,45,25,57,165,45,04,48,239,46,13,82,049,42*7C
$GPGSV,3,2,12,20,14,124,28,23,50,071,48,16,18,053,39,27,40,186,33*73
$GPGSV,3,3,12,10,10,299,36,08,13,195,32,07,01,001,20,06,03,352,*7F
$GPGLL,5231.9268,N,1323.5954,E,000214.0,A,,*0D
$GPGGA,000214.000,5231.9268,N,01323.5954,E,1,08,1.0,0.0,M,0.0,M,,*6C
$GPGSA,A,3,25,20,23,24,16,13,11,1,4,,,,1.763,0.931,1.497*33
$GPRMC,000214.000,A,5231.9268,N,01323.5954,E,43.234,80.055,030108,0.0,E,*4D
$GPGST,000214.0,14.0,10.9,6.3,76.5,6.1,9.8,22.2*68
$GPVTG,78.8,T,80.9,M,43.234,N,80.000,K,A*2F
$GPGSV,3,1,12,02,39,291,45,25,57,165,45,04,48,239,46,13,82,049,42*7C
$GPGSV,3,2,12,20,14,124,28,23,50,071,48,16,18,053,39,27,40,186,33*73
$GPGSV,3,3,12,10,10,299,36,08,13,195,32,07,01,001,20,06,03,352,*7F
$GPGLL,5231.9288,N,1323.6147,E,000215.0,A,,*0B
$GPGGA,000215.000,5231.9288,N,01323.6147,E,1,08,1.0,0.0,M,0.0,M,,*6A
$GPGSA,A,3,25,20,23,24,16,13,11,1,4,,,,1.763,0.931,1.497*33
$GPRMC,000215.000,A,5231.9288,N,01323.6147,E,43.234,80.055,030108,0.0,E,*4B
$GPGST,000215.0,14.0,10.9,6.3,76.5,6.1,9.8,22.2*69
$GPVTG,78.8,T,80.9,M,43.234,N,80.000,K,A*2F
$GPGSV,3,1,12,02,39,291,45,25,57,165,45,04,48,239,46,13,82,049,42*7C
$GPGSV,3,2,12,20,14,124,28,23,50,071,48,16,18,053,39,27,40,186,33*73
$GPGSV,3,3,12,10,10,299,36,08,13,195,32,07,01,001,20,06,03,352,*7F
$GPGLL,5231.9314,N,1323.6348,E,000216.0,A,,*01
$GPGGA,000216.000,5231.9314,N,01323.6348,E,1,08,1.0,0.0,M,0.0,M,,*60
$GPGSA,A,3,25,20,23,24,16,13,11,1,4,,,,1.763,0.931,1.497*33
$GPRMC,000216.000,A,5231.9314,N,01323.6348,E,43.234,77.464,030108,0.0,E,*4F
$GPGST,000216.0,14.0,10.9,6.3,76.5,6.1,9.8,22.2*6A
$GPVTG,78.8,T,80.9,M,43.234,N,80.000,K,A*2F
$GPGSV,3,1,12,02,39,291,45,25,57,165,45,04,48,239,46,13,82,049,42*7C
$GPGSV,3,2,12,20,14,124,28,23,50,071,48,16,18,053,39,27,40,186,33*73
$GPGSV,3,3,12,10,10,299,36,08,13,195,32,07,01,001,20,06,03,352,*7F
$GPGLL,5231.9339,N,1323.6542,E,000217.0,A,,*03
$GPGGA,000217.000,5231.9339,N,01323.6542,E,1,08,1.0,0.0,M,0.0,M,,*62
$GPGSA,A,3,25,20,23,24,16,13,11,1,4,,,,1.763,0.931,1.497*33
$GPRMC,000217.000,A,5231.9339,N,01323.6542,E,43.234,78.753,030108,0.0,E,*45
$GPGST,000217.0,14.0,10.9,6.3,76.5,6.1,9.8,22.2*6B
$GPVTG,78.8,T,80.9,M,43.234,N,80.000,K,A*2F
$GPGSV,3,1,12,02,39,291,45,25,57,165,45,04,48,239,46,13,82,049,42*7C
$GPGSV,3,2,12,20,14,124,28,23,50,071,48,16,18,053,39,27,40,186,33*73
$GPGSV,3,3,12,10,10,299,36,08,13,195,32,07,01,001,20,06,03,352,*7F
$GPGLL,5231.9362,N,1323.6735,E,000218.0,A,,*00
$GPGGA,000218.000,5231.9362,N,01323.6735,E,1,08,1.0,0.0,M,0.0,M,,*61
$GPGSA,A,3,25,20,23,24,16,13,11,1,4,,,,1.763,0.931,1.497*33
$GPRMC,000218.000,A,5231.9362,N,01323.6735,E,43.234,78.753,030108,0.0,E,*46
$GPGST,000218.0,14.0,10.9,6.3,76.5,6.1,9.8,22.2*64
$GPVTG,78.8,T,80.9,M,43.234,N,80.000,K,A*2F
$GPGSV,3,1,12,02,39,291,45,25,57,165,45,04,48,239,46,13,82,049,42*7C
$GPGSV,3,2,12,20,14,124,28,23,50,071,48,16,18,053,39,27,40,186,33*73
$GPGSV,3,3,12,10,10,299,36,08,13,195,32,07,01,001,20,06,03,352,*7F
$GPGLL,5231.9386,N,1323.6927,E,000219.0,A,,*06
$GPGGA,000219.000,5231.9386,N,01323.6927,E,1,08,1.0,0.0,M,0.0,M,,*67
$GPGSA,A,3,25,20,23,24,16,13,11,1,4,,,,1.763,0.931,1.497*33
$GPRMC,000219.000,A,5231.9386,N,01323.6927,E,43.234,78.753,030108,0.0,E,*40
$GPGST,000219.0,14.0,10.9,6.3,76.5,6.1,9.8,22.2*65
$GPVTG,78.8,T,80.9,M,43.234,N,80.000,K,A*2F
$GPGSV,3,1,12,02,39,291,45,25,57,165,45,04,48,239,46,13,82,049,42*7C
$GPGSV,3,2,12,20,14,124,28,23,50,071,48,16,18,053,39,27,40,186,33*73
$GPGSV,3,3,12,10,10,299,36,08,13,195,32,07,01,001,20,06,03,352,*7F
$GPGLL,5231.9408,N,1323.7123,E,000220.0,A,,*00
$GPGGA,000220.000,5231.9408,N,01323.7123,E,1,08,1.0,0.0,M,0.0,M,,*61
$GPGSA,A,3,25,20,23,24,16,13,11,1,4,,,,1.763,0.931,1.497*33
$GPRMC,000220.000,A,5231.9408,N,01323.7123,E,43.234,78.480,030108,0.0,E,*4B
$GPGST,000220.0,14.0,10.9,6.3,76.5,6.1,9.8,22.2*6F
$GPVTG,78.8,T,80.9,M,43.234,N,80.000,K,A*2F
$GPGSV,3,1,12,02,39,291,45,25,57,165,45,04,48,239,46,13,82,049,42*7C
$GPGSV,3,2,12,20,14,124,28,23,50,071,48,16,18,053,39,27,40,186,33*73
$GPGSV,3,3,12,10,10,299,36,08,13,195,32,07,01,001,20,06,03,352,*7F
$GPGLL,5231.9432,N,1323.7320,E,000221.0,A,,*09
$GPGGA,000221.000,5231.9432,N,01323.7320,E,1,08,1.0,0.0,M,0.0,M,,*68
$GPGSA,A,3,25,20,23,24,16,13,11,1,4,,,,1.763,0.931,1.497*33
$GPRMC,000221.000,A,5231.9432,N,01323.7320,E,43.234,81.752,030108,0.0,E,*48
$GPGST,000221.0,14.0,10.9,6.3,76.5,6.1,9.8,22.2*6E
$GPVTG,78.8,T,80.9,M,43.234,N,80.000,K,A*2F
$GPGSV,3,1,12,02,39,291,45,25,57,165,45,04,48,239,46,13,82,049,42*7C
$GPGSV,3,2,12,20,14,124,28,23,50,071,48,16,18,053,39,27,40,186,33*73
$GPGSV,3,3,12,10,10,299,36,08,13,195,32,07,01,001,20,06,03,352,*7F
$GPGLL,5231.9450,N,1323.7522,E,000222.0,A,,*0A
$GPGGA,000222.000,5231.9450,N,01323.7522,E,1,08,1.0,0.0,M,0.0,M,,*6B
$GPGSA,A,3,25,20,23,24,16,13,11,1,4,,,,1.763,0.931,1.497*33
$GPRMC,000222.000,A,5231.9450,N,01323.7522,E,43.234,81.752,030108,0.0,E,*4B
$GPGST,000222.0,14.0,10.9,6.3,76.5,6.1,9.8,22.2*6D
$GPVTG,78.8,T,80.9,M,43.234,N,80.000,K,A*2F
$GPGSV,3,1,12,02,39,291,45,25,57,165,45,04,48,239,46,13,82,049,42*7C
$GPGSV,3,2,12,20,14,124,28,23,50,071,48,16,18,053,39,27,40,186,33*73
$GPGSV,3,3,12,10,10,299,36,08,13,195,32,07,01,001,20,06,03,352,*7F
$GPGLL,5231.9462,N,1323.7725,E,000223.0,A,,*0F
$GPGGA,000223.000,5231.9462,N,01323.7725,E,1,08,1.0,0.0,M,0.0,M,,*6E
$GPGSA,A,3,25,20,23,24,16,13,11,1,4,,,,1.763,0.931,1.497*33
$GPRMC,000223.000,A,5231.9462,N,01323.7725,E,43.234,84.824,030108,0.0,E,*45
$GPGST,000223.0,14.0,10.9,6.3,76.5,6.1,9.8,22.2*6C
$GPVTG,78.8,T,80.9,M,43.234,N,80.000,K,A*2F
$GPGSV,3,1,12,02,39,291,45,25,57,165,45,04,48,239,46,13,82,049,42*7C
$GPGSV,3,2,12,20,14,124,28,23,50,071,48,16,18,053,39,27,40,186,33*73
$GPGSV,3,3,12,10,10,299,36,08,13,195,32,07,01,001,20,06,03,352,*7F
$GPGLL,5231.9473,N,1323.7923,E,000224.0,A,,*00
$GPGGA,000224.000,5231.9473,N,01323.7923,E,1,08,1.0,0.0,M,0.0,M,,*61
$GPGSA,A,3,25,20,23,24,16,13,11,1,4,,,,1.763,0.931,1.497*33
$GPRMC,000224.000,A,5231.9473,N,01323.7923,E,43.234,84.824,030108,0.0,E,*4A
$GPGST,000224.0,14.0,10.9,6.3,76.5,6.1,9.8,22.2*6B
$GPVTG,78.8,T,80.9,M,43.234,N,80.000,K,A*2F
$GPGSV,3,1,12,02,39,291,45,25,57,165,45,04,48,239,46,13,82,049,42*7C
$GPGSV,3,2,12,20,14,124,28,23,50,071,48,16,18,053,39,27,40,186,33*73
$GPGSV,3,3,12,10,10,299,36,08,13,195,32,07,01,001,20,06,03,352,*7F
$GPGLL,5231.9482,N,1323.8121,E,000225.0,A,,*0A
$GPGGA,000225.000,5231.9482,N,01323.8121,E,1,08,1.0,0.0,M,0.0,M,,*6B
$GPGSA,A,3,25,20,23,24,16,13,11,1,4,,,,1.763,0.931,1.497*33
$GPRMC,000225.000,A,5231.9482,N,01323.8121,E,43.234,86.268,030108,0.0,E,*40
$GPGST,000225.0,14.0,10.9,6.3,76.5,6.1,9.8,22.2*6A
$GPVTG,78.8,T,80.9,M,43.234,N,80.000,K,A*2F
$GPGSV,3,1,12,02,39,291,45,25,57,165,45,04,48,239,46,13,82,049,42*7C
$GPGSV,3,2,12,20,14,124,28,23,50,071,48,16,18,053,39,27,40,186,33*73
$GPGSV,3,3,12,10,10,299,36,08,13,195,32,07,01,001,20,06,03,352,*7F
$GPGLL,5231.9489,N,1323.8319,E,000226.0,A,,*0B
$GPGGA,000226.000,5231.9489,N,01323.8319,E,1,08,1.0,0.0,M,0.0,M,,*6A
$GPGSA,A,3,25,20,23,24,16,13,11,1,4,,,,1.763,0.931,1.497*33
$GPRMC,000226.000,A,5231.9489,N,01323.8319,E,43.234,87.036,030108,0.0,E,*49
$GPGST,000226.0,14.0,10.9,6.3,76.5,6.1,9.8,22.2*69
$GPVTG,78.8,T,80.9,M,43.234,N,80.000,K,A*2F
$GPGSV,3,1,12,02,39,291,45,25,57,165,45,04,48,239,46,13,82,049,42*7C
$GPGSV,3,2,12,20,14,124,28,23,50,071,48,16,18,053,39,27,40,186,33*73
$GPGSV,3,3,12,10,10,299,36,08,13,195,32,07,01,001,20,06,03,352,*7F
$GPGLL,5231.9496,N,1323.8515,E,000227.0,A,,*0E
$GPGGA,000227.000,5231.9496,N,01323.8515,E,1,08,1.0,0.0,M,0.0,M,,*6F
$GPGSA,A,3,25,20,23,24,16,13,11,1,4,,,,1.763,0.931,1.497*33
$GPRMC,000227.000,A,5231.9496,N,01323.8515,E,43.234,87.036,030108,0.0,E,*4C
$GPGST,000227.0,14.0,10.9,6.3,76.5,6.1,9.8,22.2*68
$GPVTG,78.8,T,80.9,M,43.234,N,80.000,K,A*2F
$GPGSV,3,1,12,02,39,291,45,25,57,165,45,04,48,239,46,13,82,049,42*7C
$GPGSV,3,2,12,20,14,124,28,23,50,071,48,16,18,053,39,27,40,186,33*73
$GPGSV,3,3,12,10,10,299,36,08,13,195,32,07,01,001,20,06,03,352,*7F
$GPGLL,5231.9503,N,1323.8711,E,000228.0,A,,*0A
$GPGGA,000228.000,5231.9503,N,01323.8711,E,1,08,1.0,0.0,M,0.0,M,,*6B
$GPGSA,A,3,25,20,23,24,16,13,11,1,4,,,,1.763,0.931,1.497*33
$GPRMC,000228.000,A,5231.9503,N,01323.8711,E,43.234,83.236,030108,0.0,E,*4E
$GPGST,000228.0,14.0,10.9,6.3,76.5,6.1,9.8,22.2*67
$GPVTG,78.8,T,80.9,M,43.234,N,80.000,K,A*2F
$GPGSV,3,1,12,02,39,291,45,25,57,165,45,04,48,239,46,13,82,049,42*7C
$GPGSV,3,2,12,20,14,124,28,23,50,071,48,16,18,053,39,27,40,186,33*73
$GPGSV,3,3,12,10,10,299,36,08,13,195,32,07,01,001,20,06,03,352,*7F
$GPGLL,5231.9518,N,1323.8908,E,000229.0,A,,*07
$GPGGA,000229.000,5231.9518,N,01323.8908,E,1,08,1.0,0.0,M,0.0,M,,*66
$GPGSA,A,3,25,20,23,24,16,13,11,1,4,,,,1.763,0.931,1.497*33
$GPRMC,000229.000,A,5231.9518,N,01323.8908,E,43.234,83.236,030108,0.0,E,*43
$GPGST,000229.0,14.0,10.9,6.3,76.5,6.1,9.8,22.2*66
$GPVTG,78.8,T,80.9,M,43.234,N,80.000,K,A*2F
$GPGSV,3,1,12,02,39,291,45,25,57,165,45,04,48,239,46,13,82,049,42*7C
$GPGSV,3,2,12,20,14,124,28,23,50,071,48,16,18,053,39,27,40,186,33*73
$GPGSV,3,3,12,10,10,299,36,08,13,195,32,07,01,001,20,06,03,352,*7F
$GPGLL,5231.9533,N,1323.9108,E,000230.0,A,,*0F
$GPGGA,000230.000,5231.9533,N,01323.9108,E,1,08,1.0,0.0,M,0.0,M,,*6E
$GPGSA,A,3,25,20,23,24,16,13,11,1,4,,,,1.763,0.931,1.497*33
$GPRMC,000230.000,A,5231.9533,N,01323.9108,E,43.234,81.928,030108,0.0,E,*4D
$GPGST,000230.0,14.0,10.9,6.3,76.5,6.1,9.8,22.2*6E
$GPVTG,78.8,T,80.9,M,43.234,N,80.000,K,A*2F
$GPGSV,3,1,12,02,39,291,45,25,57,165,45,04,48,239,46,13,82,049,42*7C
$GPGSV,3,2,12,20,14,124,28,23,50,071,48,16,18,053,39,27,40,186,33*73
$GPGSV,3,3,12,10,10,299,36,08,13,195,32,07,01,001,20,06,03,352,*7F
$GPGLL,5231.9559,N,1323.9286,E,000231.0,A,,*07
$GPGGA,000231.000,5231.9559,N,01323.9286,E,1,08,1.0,0.0,M,0.0,M,,*66
$GPGSA,A,3,25,20,23,24,16,13,11,1,4,,,,1.763,0.931,1.497*33
$GPRMC,000231.000,A,5231.9559,N,01323.9286,E,43.234,73.232,030108,0.0,E,*48
$GPGST,000231.0,14.0,10.9,6.3,76.5,6.1,9.8,22.2*6F
$GPVTG,78.8,T,80.9,M,43.234,N,80.000,K,A*2F
